[
    {
        "name": "椒江农村合作银行",
        "address": "汇丰路212-214号附近",
        "longitude": 28.608227,
        "latitude": 121.407516
    },
    {
        "name": "路桥农村合作银行(开发区支行)",
        "address": "东海大道656-670号",
        "longitude": 28.646925,
        "latitude": 121.422251
    },
    {
        "name": "椒江农村合作银行(山东分理处)",
        "address": "枫南东路188号",
        "longitude": 28.657202,
        "latitude": 121.468422
    },
    {
        "name": "椒江农村合作银行(三甲支行)",
        "address": "三甲街道繁荣街25号",
        "longitude": 28.609718,
        "latitude": 121.478114
    },
    {
        "name": "椒江农村合作银行(海门支行江城路分理处)",
        "address": "江城北路9号",
        "longitude": 28.677696,
        "latitude": 121.4422155
    },
    {
        "name": "椒江农村合作银行(梓林分理处)",
        "address": "章安街道梓林村",
        "longitude": 28.733628,
        "latitude": 121.4074056
    },
    {
        "name": "椒江农村合作银行(界牌分理处)",
        "address": "界牌路192-198号",
        "longitude": 28.644544,
        "latitude": 121.4243397
    },
    {
        "name": "椒江农村合作银行(东山支行)",
        "address": "葭芷街道东山头村东南大道",
        "longitude": 28.634664,
        "latitude": 121.387361
    },
    {
        "name": "椒江农村合作银行(海门支行)",
        "address": "枫南路156-172号",
        "longitude": 28.660875,
        "latitude": 121.445494
    },
    {
        "name": "椒江农村合作银行(章安支行杨司分理处)",
        "address": "S28台金高速",
        "longitude": 28.732507,
        "latitude": 121.442879
    },
    {
        "name": "椒江农村合作银行(前所支行)",
        "address": "前杜路5号",
        "longitude": 28.698538,
        "latitude": 121.449208
    },
    {
        "name": "浙江台州椒江农村合作银行工会",
        "address": "工人东路322号",
        "longitude": 28.679592,
        "latitude": 121.434714
    },
    {
        "name": "椒江农村合作银行(市府大道支行)",
        "address": "市府大道东段280号",
        "longitude": 28.649252,
        "latitude": 121.448257
    },
    {
        "name": "椒江农村合作银行(开发区支行机场分理处)",
        "address": "机场路481号",
        "longitude": 28.642947,
        "latitude": 121.441078
    },
    {
        "name": "椒江农村合作银行(章安支行)",
        "address": "章安街道环河西路2号",
        "longitude": 28.709044,
        "latitude": 121.414318
    },
    {
        "name": "椒江农村合作银行(栅浦分理处)",
        "address": "富强村洋屿新村1号",
        "longitude": 28.674483,
        "latitude": 121.389869
    },
    {
        "name": "椒江农村合作银行(白云支行)",
        "address": "东环大道131-135号",
        "longitude": 28.657401,
        "latitude": 121.434131
    },
    {
        "name": "椒江农村合作银行(下陈支行)",
        "address": "机场路25号",
        "longitude": 28.584436,
        "latitude": 121.44926
    },
    {
        "name": "椒江农村合作银行(洪家支行)",
        "address": "洪三路240号附近",
        "longitude": 28.611887,
        "latitude": 121.415232
    },
    {
        "name": "椒江农村合作银行(东山头分理处)",
        "address": "葭芷街道东山头村东升路113号",
        "longitude": 28.634775,
        "latitude": 121.391953
    },
    {
        "name": "椒江农村合作银行(总行营业部)",
        "address": "工人东路322号",
        "longitude": 28.679303,
        "latitude": 121.434706
    },
    {
        "name": "椒江农村合作银行(大陈支行)",
        "address": "大陈镇海新路7号",
        "longitude": 28.448045,
        "latitude": 121.902869
    },
    {
        "name": "椒江农村合作银行(葭芷街分理处)",
        "address": "西大街289-3号附近",
        "longitude": 28.676269,
        "latitude": 121.405928
    },
    {
        "name": "椒江农村合作银行(开发区支行)",
        "address": "东海大道810、818、828号",
        "longitude": 28.648064,
        "latitude": 121.416911
    },
    {
        "name": "椒江农村合作银行(解放路支行)",
        "address": "椒江商务中心6-7幢101-301",
        "longitude": 28.670582,
        "latitude": 121.437152
    },
    {
        "name": "椒江农村合作银行(上洋桥分理处)",
        "address": "上洋桥路109号",
        "longitude": 28.593092,
        "latitude": 121.391556
    },
    {
        "name": "椒江农村合作银行(洪家支行洪三路分理处)",
        "address": "洪三西路142号",
        "longitude": 28.610409,
        "latitude": 121.418149
    },
    {
        "name": "椒江农村合作银行(前所支行前岸分理处)",
        "address": "道感堂村附近",
        "longitude": 28.722164,
        "latitude": 121.476477
    },
    {
        "name": "椒江农村合作银行(葭芷支行)",
        "address": "碧海明珠花园36幢107-112号商铺",
        "longitude": 28.66505,
        "latitude": 121.397556
    },
    {
        "name": "椒江农村合作银行(洪家支行城市港湾分理处)",
        "address": "白云山南路965号",
        "longitude": 28.600824,
        "latitude": 121.386395
    },
    {
        "name": "椒江农村合作银行(星明路分理处)",
        "address": "星明路98号",
        "longitude": 28.679056,
        "latitude": 121.421
    },
    {
        "name": "椒江农村合作银行(兆桥分理处)",
        "address": "洪家镇朱家店村",
        "longitude": 28.601745,
        "latitude": 121.37689
    },
    {
        "name": "黄岩农村合作银行(开发大道)",
        "address": "横街251",
        "longitude": 28.638332,
        "latitude": 121.515133
    },
    {
        "name": "椒江农村合作银行(开元路分理处)",
        "address": "开元路339-341号(台州市住房公积金管理中心西南)",
        "longitude": 28.656039,
        "latitude": 121.434821
    },
    {
        "name": "椒江农村合作银行(西山分理处)",
        "address": "葭沚街道中村156号",
        "longitude": 28.644916,
        "latitude": 121.364224
    },
    {
        "name": "浙江台州椒江农村合作银行(甲北分理处)",
        "address": "椒金线",
        "longitude": 28.633856,
        "latitude": 121.478241
    },
    {
        "name": "椒江农村合作银行(中山路分理处)",
        "address": "中山西路中国农业银行椒江支行西30米路北",
        "longitude": 28.675783,
        "latitude": 121.431729
    },
    {
        "name": "椒江农村合作银行(石柱支行)",
        "address": "优良村888",
        "longitude": 28.595907,
        "latitude": 121.484938
    },
    {
        "name": "椒江农村合作银行(灵济分理处)",
        "address": "洪灵路238号",
        "longitude": 28.590423,
        "latitude": 121.416916
    },
    {
        "name": "椒江农村合作银行(章安支行黄礁分理处)",
        "address": "章安大道与001乡道交汇处南100米",
        "longitude": 28.71253,
        "latitude": 121.369419
    },
    {
        "name": "椒江农村合作银行(下陈支行中心街分理处)",
        "address": "下陈街道中心街239号",
        "longitude": 28.588688,
        "latitude": 121.453879
    },
    {
        "name": "椒江农村合作银行ATM(沿海分理处)",
        "address": "前所街道六联村349号",
        "longitude": 28.716436,
        "latitude": 121.499045
    },
    {
        "name": "椒江农村合作银行ATM",
        "address": "文明路与桔园路交叉口东100米",
        "longitude": 28.674858,
        "latitude": 121.416839
    },
    {
        "name": "椒江农村合作银行ATM",
        "address": "西大街289-3号附近",
        "longitude": 28.676353,
        "latitude": 121.405878
    },
    {
        "name": "椒江农村合作银行ATM",
        "address": "白云山西路与台州大道交叉口",
        "longitude": 28.665056,
        "latitude": 121.397431
    },
    {
        "name": "椒江农村合作银行ATM",
        "address": "花园路与轮渡路交叉口东50米",
        "longitude": 28.676733,
        "latitude": 121.429866
    },
    {
        "name": "椒江农村合作银行24小时自助银行(下陈支行中心街分理处)",
        "address": "下陈街道中心街239号",
        "longitude": 28.588688,
        "latitude": 121.45388
    },
    {
        "name": "椒江农村合作银行ATM(上洋桥分理处)",
        "address": "上洋桥路109号",
        "longitude": 28.593092,
        "latitude": 121.391556
    },
    {
        "name": "椒江农村合作银行农信服务点",
        "address": "椒金线东50米",
        "longitude": 28.618517,
        "latitude": 121.481044
    },
    {
        "name": "椒江农村合作银行24小时自助银行",
        "address": "洪灵路与粮库西路交叉口北50米",
        "longitude": 28.590446,
        "latitude": 121.416788
    },
    {
        "name": "椒江农村合作银行华景村自助网点",
        "address": "沿江东路48幢48-16",
        "longitude": 28.70946,
        "latitude": 121.421937
    },
    {
        "name": "椒江农村合作银行24小时自助银行(章安支行)",
        "address": "沿江西路2号",
        "longitude": 28.709043,
        "latitude": 121.414317
    },
    {
        "name": "路桥农村合作银行24小时自助银行(东海大道)",
        "address": "东海大道656-670号",
        "longitude": 28.646954,
        "latitude": 121.422055
    },
    {
        "name": "中共浙江台州椒江农村合作银行委员会",
        "address": "工人东路322号",
        "longitude": 28.679592,
        "latitude": 121.434714
    },
    {
        "name": "浙江农信24小时自助银行(前所支行)",
        "address": "前所街道前杜路5号",
        "longitude": 28.698538,
        "latitude": 121.449208
    },
    {
        "name": "椒江农村合作银行24小时自助银行(海门支行)",
        "address": "枫南路156-172号",
        "longitude": 28.661085,
        "latitude": 121.445233
    },
    {
        "name": "椒江农村合作银行24小时自助银行(开发区分理处)",
        "address": "东海大道6号",
        "longitude": 28.642964,
        "latitude": 121.441006
    },
    {
        "name": "椒江农村合作银行24小时自助银行(江滨分理处)",
        "address": "江城北路9号",
        "longitude": 28.677775,
        "latitude": 121.442188
    },
    {
        "name": "椒江农村合作银行24小时自助银行(洪家支行)",
        "address": "洪三路240号附近",
        "longitude": 28.611931,
        "latitude": 121.415304
    },
    {
        "name": "椒江农村合作银行24小时自助银行(章古路)",
        "address": "沿江东路48幢48-16",
        "longitude": 28.709381,
        "latitude": 121.421947
    },
    {
        "name": "椒江农村合作银行24小时自助银行(海门支行)",
        "address": "枫南路156-172号",
        "longitude": 28.661085,
        "latitude": 121.445233
    },
    {
        "name": "椒江农村合作银行24小时自助银行(开发区分理处)",
        "address": "东海大道6号",
        "longitude": 28.642964,
        "latitude": 121.441006
    },
    {
        "name": "椒江农村合作银行24小时自助银行(江滨分理处)",
        "address": "江城北路9号",
        "longitude": 28.677775,
        "latitude": 121.442188
    },
    {
        "name": "椒江农村合作银行24小时自助银行(洪家支行)",
        "address": "洪三路240号附近",
        "longitude": 28.611931,
        "latitude": 121.415304
    },
    {
        "name": "椒江农村合作银行24小时自助银行(章古路)",
        "address": "沿江东路48幢48-16",
        "longitude": 28.709381,
        "latitude": 121.421947
    },
    {
        "name": "椒江农村合作银行24小时自助银行(东山支行)",
        "address": "葭芷街道东山头村东南大道",
        "longitude": 28.634664,
        "latitude": 121.387361
    },
    {
        "name": "椒江农村合作银行24小时自助银行(市府大道支行)",
        "address": "青春华庭357-359",
        "longitude": 28.649077,
        "latitude": 121.448131
    },
    {
        "name": "淑江农村合作银行24小时自助银行",
        "address": "枫南东路397附近",
        "longitude": 28.660396,
        "latitude": 121.456434
    },
    {
        "name": "椒江农村合作银行24小时自助银行(东山头分理处)",
        "address": "前大路与育苗路交叉口东50米",
        "longitude": 28.634775,
        "latitude": 121.391953
    },
    {
        "name": "椒江农村合作银行24小时自助银行(陵园路)",
        "address": "江城北路9号",
        "longitude": 28.676185,
        "latitude": 121.440642
    },
    {
        "name": "椒江农村合作银行24小时自助银行(海龙路)",
        "address": "市府大道与海龙路交叉口东北50米",
        "longitude": 28.656389,
        "latitude": 121.399837
    },
    {
        "name": "椒江农村合作银行24小时自助银行(洪家支行城市港湾分理处)",
        "address": "白云山南路965号附近",
        "longitude": 28.600749,
        "latitude": 121.386583
    },
    {
        "name": "椒江农村合作银行24小时自助银行(中山东路)",
        "address": "中山东路与育才路交汇处东南50米",
        "longitude": 28.677875,
        "latitude": 121.444583
    },
    {
        "name": "椒江农村合作银行24小时自助银行(岩屿路)",
        "address": "岩屿路258号",
        "longitude": 28.679628,
        "latitude": 121.424756
    },
    {
        "name": "椒江农村合作银行24小时自助银行(解放南路)",
        "address": "解放南路216号",
        "longitude": 28.675154,
        "latitude": 121.438767
    },
    {
        "name": "椒江农村合作银行24小时自助银行(白云支行)",
        "address": "工人东路322号",
        "longitude": 28.679297,
        "latitude": 121.43475
    },
    {
        "name": "椒江农村合作银行24小时自助银行(银河西巷)",
        "address": "金海西巷与银河西巷交叉口西南50米",
        "longitude": 28.679149,
        "latitude": 121.433369
    },
    {
        "name": "椒江农村合作银行24小时自助银行(中山西路)",
        "address": "中山西路82号",
        "longitude": 28.675104,
        "latitude": 121.425889
    },
    {
        "name": "椒江农村合作银行24小时自助银行(白云支行)",
        "address": "东环大道131-135号",
        "longitude": 28.657401,
        "latitude": 121.434131
    },
    {
        "name": "椒江农村合作银行24小时自助银行(001乡道)",
        "address": "章安大道与001乡道交叉口东南50米",
        "longitude": 28.712968,
        "latitude": 121.369777
    },
    {
        "name": "椒江农村合作银行24小时自助银行(界牌分理处)",
        "address": "界牌路192-198号",
        "longitude": 28.644592,
        "latitude": 121.42435
    },
    {
        "name": "椒江农村合作银行24小时自助银行(解放路支行)",
        "address": "解放南路140-144号",
        "longitude": 28.670738,
        "latitude": 121.437229
    },
    {
        "name": "椒江农村合作银行24小时自助银行(开发区支行)",
        "address": "东海大道810、818、828",
        "longitude": 28.648186,
        "latitude": 121.416928
    },
    {
        "name": "椒江农村合作银行24小时自助银行(上椒线)",
        "address": "上椒线附近",
        "longitude": 28.612602,
        "latitude": 121.508482
    },
    {
        "name": "椒江农村合作银行24小时自助银行(栅浦分理处)",
        "address": "葭芷街道富强村综合楼",
        "longitude": 28.674494,
        "latitude": 121.389833
    },
    {
        "name": "椒江农村合作银行24小时自助银行(前岸分理处)",
        "address": "南大路东50米",
        "longitude": 28.722165,
        "latitude": 121.476474
    },
    {
        "name": "椒江农村合作银行社区金融服务联络站",
        "address": "解放南路210-8号附近",
        "longitude": 28.674052,
        "latitude": 121.439553
    },
    {
        "name": "椒江农村合作银行24小时自助银行(梓林分理处)",
        "address": "章安街道梓林村",
        "longitude": 28.733628,
        "latitude": 121.407403
    },
    {
        "name": "椒江农村合作银行24小时自助银行(汇丰路)",
        "address": "汇丰路台州东站附近",
        "longitude": 28.607892,
        "latitude": 121.407197
    },
    {
        "name": "淑江区农村合作社24小时自助银行",
        "address": "椒金线",
        "longitude": 28.633731,
        "latitude": 121.478446
    },
    {
        "name": "椒江农村合作银行24小时自助银行(中山分理处)",
        "address": "工人东路322号",
        "longitude": 28.675783,
        "latitude": 121.431729
    },
    {
        "name": "椒江农村合作银行24小时自助银行(轮渡路分理处)",
        "address": "轮渡路100-3号附近",
        "longitude": 28.671811,
        "latitude": 121.429333
    }
]